Fish:
  Fish_1:
    name: karas
  Fish_2:
    name: okun
  Fish_3:
    name: plotva
Location:
  Location_1:
    name: agrtwgare
    description: dfgwegr
    slug: agrtwgare
    latitude: '55.06'
    longitude: '35.60'
  Location_2:
    name: zxczxc23tgwe
    description: r32fwergt
    slug: zxczxc23tgwe
    latitude: '55.52'
    longitude: '35.60'
  Location_3:
    name: fsdgfthyj2er3t4g
    description: 5qdwfegrhtyjtrqwfegrh
    slug: fsdgfthyj2er3t4g
    latitude: '55.32'
    longitude: '36.16'
  Location_4:
    name: yahooo
    description: '1111111111111111'
    slug: yahooo
    latitude: '54.70'
    longitude: '36.95'
  Location_5:
    name: gdfdfgdfg
    description: dfhestnrnsfgn
    slug: gdfdfgdfg
    latitude: '54.90'
    longitude: '35.95'
  Location_6:
    name: drgsdfh
    description: srghsdthj
    slug: drgsdfh
    latitude: '55.18'
    longitude: '37.40'
  Location_7:
    name: asdftyui
    description: wertwertgaerh
    slug: asdftyui
    latitude: '55.60'
    longitude: '38.48'
  Location_8:
    name: etujtdy
    description: ertertery
    slug: etujtdy
    latitude: '55.34'
    longitude: '36.37'
  Location_9:
    name: 'Пляж на угре'
    description: 'Красивое место'
    slug: ''
    latitude: '54.83'
    longitude: '35.03'
Style:
  Style_2:
    name: poplovok
  Style_1:
    name: spining
